name,resource_type,category,town,area,address,location_notes,latitude,longitude,phone,whatsapp,website,facebook,hours,tags,description,emergency_useful,english_spoken,payment_notes,delivery_available,service_area,verified,last_verified,verified_by,source_notes,map_pin_status
Example Fuel Stop,business,Fuel,Todos Santos,Highway Corridor,"Example Hwy KM marker",Near main turnoff,23.0000,-110.0000,+52-000-000-0000,+52-000-000-0000,,,Mon-Sun 6:00-22:00,"fuel,gas,roadside",Example placeholder listing for fuel stop,false,unknown,"unknown",false,Local area,false,,,"example data only; do not publish",not_mapped
Example Water and Propane Delivery,utility_provider,"Water delivery",El Pescadero,Service Route,,Mobile delivery service,23.1000,-110.1000,+52-000-000-0001,+52-000-000-0001,,,Mon-Sat 7:00-18:00,"water,propane,delivery",Example placeholder listing for water and propane delivery,true,unknown,"cash or card unknown",true,"El Pescadero and nearby",false,,,"example data only; do not publish",not_mapped
Example Mechanic and Tire Shop,roadside_help,Mechanics,La Paz,Industrial Zone,"Example street 123",Near tire warehouses,24.1000,-110.3000,+52-000-000-0002,+52-000-000-0002,,,Mon-Fri 8:00-17:00,"mechanic,tires,repair",Example placeholder listing for mechanic and tire services,true,unknown,"cash preferred",false,"La Paz",false,,,"example data only; do not publish",not_mapped
Example SAPA Office,government_office,"SAPA / water office",Todos Santos,Centro,"Example municipal office",Bring account number if available,23.4000,-110.2000,+52-000-000-0003,,,,Mon-Fri 8:00-15:00,"sapa,water,billing",Example placeholder listing for water office support,true,unknown,"cash or card unknown",false,"Town office coverage",false,,,"example data only; do not publish",not_mapped
Example Clinic,medical_resource,Clinics,Cabo San Lucas,Central,"Example clinic address",Urgent care intake desk,22.9000,-109.9000,+52-000-000-0004,+52-000-000-0004,,,Daily 24 hours,"clinic,medical,urgent",Example placeholder listing for clinic resource,true,unknown,"payment varies",false,"Cabo San Lucas",false,,,"example data only; do not publish",not_mapped
Example Package Receiving Spot,public_service,"Package receiving",San José del Cabo,Commercial Area,"Example shipping counter",Accepts package hold with ID,23.0001,-109.7000,+52-000-000-0005,+52-000-000-0005,,,Mon-Sat 9:00-18:00,"packages,shipping,receiving",Example placeholder listing for package receiving,false,unknown,"service fee may apply",false,"San José del Cabo",false,,,"example data only; do not publish",not_mapped
